{
    "type": "FeatureCollection",
    "features": [
        {
            "type": "Feature",
            "properties": {
                "CityName": "Toronto"
            },
            "geometry": {
                "coordinates": [
                    -79.39034605728321,
                    43.68555874364705
                ],
                "type": "Point"
            },
            "id": 0
        },
        {
            "type": "Feature",
            "properties": {
                "CityName": "Ottawa"
            },
            "geometry": {
                "coordinates": [
                    -75.72444630364974,
                    45.48428720068023
                ],
                "type": "Point"
            },
            "id": 1
        },
        {
            "type": "Feature",
            "properties": {
                "CityName": "Montreal"
            },
            "geometry": {
                "coordinates": [
                    -73.56929137252101,
                    45.540613414063984
                ],
                "type": "Point"
            },
            "id": 2
        },
        {
            "type": "Feature",
            "properties": {
                "CityName": "Cancun"
            },
            "geometry": {
                "coordinates": [
                    -86.8527550008298,
                    21.187905002218415
                ],
                "type": "Point"
            },
            "id": 3
        },
        {
            "type": "Feature",
            "properties": {
                "CityName": "San Jose"
            },
            "geometry": {
                "coordinates": [
                    -84.0685261498144,
                    9.943133666387652
                ],
                "type": "Point"
            },
            "id": 4
        },
        {
            "type": "Feature",
            "properties": {
                "CityName": "Bogota"
            },
            "geometry": {
                "coordinates": [
                    -74.08546505626899,
                    4.6646537497639
                ],
                "type": "Point"
            },
            "id": 5
        },
        {
            "type": "Feature",
            "properties": {
                "CityName": "Lisbon"
            },
            "geometry": {
                "coordinates": [
                    -9.185038524713036,
                    38.764669532904975
                ],
                "type": "Point"
            },
            "id": 6
        },
        {
            "type": "Feature",
            "properties": {
                "CityName": "Lusanne"
            },
            "geometry": {
                "coordinates": [
                    6.635017324441094,
                    46.52922907338154
                ],
                "type": "Point"
            },
            "id": 7
        },
        {
            "type": "Feature",
            "properties": {
                "CityName": "Athens"
            },
            "geometry": {
                "coordinates": [
                    23.74904430635604,
                    38.021953064015406
                ],
                "type": "Point"
            },
            "id": 8
        },
        {
            "type": "Feature",
            "properties": {
                "CityName": "Vancouver"
            },
            "geometry": {
                "coordinates": [
                    -123.09168612258318,
                    49.4188088849553
                ],
                "type": "Point"
            },
            "id": 9
        }
    ]
}